{
"type": "FeatureCollection",
"crs": { "type": "name", "properties": { "name": "urn:ogc:def:crs:OGC:1.3:CRS84" } },
"features": [
{ "type": "Feature", "properties": { "name": "Верещагина" }, "geometry": { "type": "Point", "coordinates": [ 37.9172183, 59.1315609 ] } },
{ "type": "Feature", "properties": { "name": "Красный ткач" }, "geometry": { "type": "Point", "coordinates": [ 37.9658755, 59.1254892 ] } },
{ "type": "Feature", "properties": { "name": "Юбилейная" }, "geometry": { "type": "Point", "coordinates": [ 37.9901637, 59.1221483 ] } },
{ "type": "Feature", "properties": { "name": "Олимпийская" }, "geometry": { "type": "Point", "coordinates": [ 38.0077884, 59.1197031 ] } },
{ "type": "Feature", "properties": { "name": "Сталеваров" }, "geometry": { "type": "Point", "coordinates": [ 37.9100421, 59.132186 ] } },
{ "type": "Feature", "properties": { "name": "Университет" }, "geometry": { "type": "Point", "coordinates": [ 37.9035187, 59.1337185 ] } },
{ "type": "Feature", "properties": { "name": "Комарова" }, "geometry": { "type": "Point", "coordinates": [ 37.8955272, 59.1354074 ] } },
{ "type": "Feature", "properties": { "name": "Гагарина" }, "geometry": { "type": "Point", "coordinates": [ 37.8896466, 59.1353632 ] } },
{ "type": "Feature", "properties": { "name": "Центральное заводоуправление" }, "geometry": { "type": "Point", "coordinates": [ 37.8748661, 59.1354697 ] } },
{ "type": "Feature", "properties": { "name": "Доменная" }, "geometry": { "type": "Point", "coordinates": [ 37.858146, 59.1355862 ] } },
{ "type": "Feature", "properties": { "name": "Доменная" }, "geometry": { "type": "Point", "coordinates": [ 37.8594717, 59.135638 ] } },
{ "type": "Feature", "properties": { "name": "Кислородная" }, "geometry": { "type": "Point", "coordinates": [ 37.8397573, 59.1327173 ] } },
{ "type": "Feature", "properties": { "name": "Верещагина" }, "geometry": { "type": "Point", "coordinates": [ 37.9166694, 59.1313679 ] } },
{ "type": "Feature", "properties": { "name": "Заря Свободы" }, "geometry": { "type": "Point", "coordinates": [ 37.9189806, 59.1355552 ] } },
{ "type": "Feature", "properties": { "name": "Набережная" }, "geometry": { "type": "Point", "coordinates": [ 37.9402938, 59.1285925 ] } },
{ "type": "Feature", "properties": { "name": "Набережная" }, "geometry": { "type": "Point", "coordinates": [ 37.9409823, 59.1285125 ] } },
{ "type": "Feature", "properties": { "name": "Первомайская" }, "geometry": { "type": "Point", "coordinates": [ 37.9584066, 59.1264668 ] } },
{ "type": "Feature", "properties": { "name": "Улица Архангельская" }, "geometry": { "type": "Point", "coordinates": [ 37.9757686, 59.1241544 ] } },
{ "type": "Feature", "properties": { "name": "Улица Архангельская" }, "geometry": { "type": "Point", "coordinates": [ 37.9764752, 59.1240558 ] } },
{ "type": "Feature", "properties": { "name": "Кинотеатр Победа" }, "geometry": { "type": "Point", "coordinates": [ 37.9826139, 59.1231957 ] } },
{ "type": "Feature", "properties": { "name": "Курсантский бульвар" }, "geometry": { "type": "Point", "coordinates": [ 37.9338484, 59.134145 ] } },
{ "type": "Feature", "properties": { "name": "Вокзал" }, "geometry": { "type": "Point", "coordinates": [ 37.9257774, 59.1371049 ] } },
{ "type": "Feature", "properties": { "name": "Рынок" }, "geometry": { "type": "Point", "coordinates": [ 37.9227676, 59.1306558 ] } },
{ "type": "Feature", "properties": { "name": "Красноармейская площадь" }, "geometry": { "type": "Point", "coordinates": [ 37.9336889, 59.1293785 ] } },
{ "type": "Feature", "properties": { "name": "Водородная" }, "geometry": { "type": "Point", "coordinates": [ 37.8489936, 59.1345354 ] } },
{ "type": "Feature", "properties": { "name": "Красный ткач" }, "geometry": { "type": "Point", "coordinates": [ 37.9664469, 59.1254167 ] } },
{ "type": "Feature", "properties": { "name": "Первомайская" }, "geometry": { "type": "Point", "coordinates": [ 37.9604457, 59.1262076 ] } },
{ "type": "Feature", "properties": { "name": "Сталеваров" }, "geometry": { "type": "Point", "coordinates": [ 37.908212, 59.1325288 ] } },
{ "type": "Feature", "properties": { "name": "Кинотеатр \"Победа\"" }, "geometry": { "type": "Point", "coordinates": [ 37.9830025, 59.1231418 ] } },
{ "type": "Feature", "properties": { "name": "23-й микрорайон" }, "geometry": { "type": "Point", "coordinates": [ 38.0010689, 59.1206354 ] } },
{ "type": "Feature", "properties": { "name": "23-й микрорайон" }, "geometry": { "type": "Point", "coordinates": [ 38.0005961, 59.120701 ] } },
{ "type": "Feature", "properties": { "name": "Юбилейная" }, "geometry": { "type": "Point", "coordinates": [ 37.9906235, 59.1220845 ] } },
{ "type": "Feature", "properties": { "name": "Аглофабрика №3" }, "geometry": { "type": "Point", "coordinates": [ 37.8330335, 59.1343619 ] } },
{ "type": "Feature", "properties": { "name": "Аглофабрика №3" }, "geometry": { "type": "Point", "coordinates": [ 37.8332986, 59.1343469 ] } }
]
}
